{
"type": "FeatureCollection",
"name": "FBlocation",
"crs": { "type": "name", "properties": { "name": "urn:ogc:def:crs:OGC:1.3:CRS84" } },
"features": [
{ "type": "Feature", "properties": { "Name of Food Bank": "Scarborough Centre for Healthy Communities", "Address": "4100 Lawrence Avenue East", "Latitude": 43.76704, "Longitude": -79.195497, "City": "Toronto ", "Province": "Ontario", "Country": "Canada", "Postal Code": "M1E2R9", "unique code": 1, "zone": 1, "order survey": 46, "L2F Code": 55 }, "geometry": { "type": "Point", "coordinates": [ -79.195497, 43.76704 ] } },
{ "type": "Feature", "properties": { "Name of Food Bank": "Staff of Life Food Bank", "Address": "65 Grand Marshall Drive", "Latitude": 43.802838, "Longitude": -79.193991, "City": "Toronto ", "Province": "Ontario", "Country": "Canada", "Postal Code": "M1B5N6", "unique code": 2, "zone": 1, "order survey": 56, "L2F Code": 1203 }, "geometry": { "type": "Point", "coordinates": [ -79.193991, 43.802838 ] } },
{ "type": "Feature", "properties": { "Name of Food Bank": "Malvern Food Bank", "Address": "20 Sewells Road", "Latitude": 43.807587, "Longitude": -79.216781, "City": "Toronto ", "Province": "Ontario", "Country": "Canada", "Postal Code": "M1B3G5", "unique code": 3, "zone": 1, "order survey": 36, "L2F Code": 1126 }, "geometry": { "type": "Point", "coordinates": [ -79.216781, 43.807587 ] } },
{ "type": "Feature", "properties": { "Name of Food Bank": "Food Pantry at Morningside", "Address": "90 Mornelle Court", "Latitude": 43.787816, "Longitude": -79.196117, "City": "Toronto ", "Province": "Ontario", "Country": "Canada", "Postal Code": "M1E4P9", "unique code": 4, "zone": 1, "order survey": 24, "L2F Code": 1204 }, "geometry": { "type": "Point", "coordinates": [ -79.196117, 43.787816 ] } },
{ "type": "Feature", "properties": { "Name of Food Bank": "Tuxedo Court Food Bank", "Address": "50 Tuxedo Court", "Latitude": 43.7803916, "Longitude": -79.2318234, "City": "Toronto ", "Province": "Ontario", "Country": "Canada", "Postal Code": "M1G3S8", "unique code": 5, "zone": 1, "order survey": 70, "L2F Code": 1227 }, "geometry": { "type": "Point", "coordinates": [ -79.2318234, 43.7803916 ] } },
{ "type": "Feature", "properties": { "Name of Food Bank": "St. Stephen's Presbyterian Church", "Address": "3817 Lawrence Avenue East", "Latitude": 43.762122, "Longitude": -79.21234, "City": "Toronto ", "Province": "Ontario", "Country": "Canada", "Postal Code": "M1G1R2", "unique code": 6, "zone": 1, "order survey": 55, "L2F Code": 1102 }, "geometry": { "type": "Point", "coordinates": [ -79.21234, 43.762122 ] } },
{ "type": "Feature", "properties": { "Name of Food Bank": "West Hill Community Food Bank", "Address": "4205 Lawrence Avenue East", "Latitude": 43.767984, "Longitude": -79.185347, "City": "Toronto ", "Province": "Ontario", "Country": "Canada", "Postal Code": "M1E4S6", "unique code": 8, "zone": 1, "order survey": 71, "L2F Code": 1213 }, "geometry": { "type": "Point", "coordinates": [ -79.185347, 43.767984 ] } },
{ "type": "Feature", "properties": { "Name of Food Bank": "The Housing Help Centre", "Address": "705 Progress Avenue East", "Latitude": 43.7774516, "Longitude": -79.2468318, "City": "Toronto ", "Province": "Ontario", "Country": "Canada", "Postal Code": "M1H2X1", "unique code": 16, "zone": 1, "order survey": 61, "L2F Code": 1241 }, "geometry": { "type": "Point", "coordinates": [ -79.2468318, 43.7774516 ] } },
{ "type": "Feature", "properties": { "Name of Food Bank": "Markham Road Christ Church Food Bank", "Address": "155 Markham Rd", "Latitude": 43.741764, "Longitude": -79.217802, "City": "Toronto ", "Province": "Ontario", "Country": "Canada", "Postal Code": "M1M 3A1", "unique code": 72, "zone": 1, "order survey": 20, "L2F Code": 1267 }, "geometry": { "type": "Point", "coordinates": [ -79.217802, 43.741764 ] } },
{ "type": "Feature", "properties": { "Name of Food Bank": "Empringham Food Bank", "Address": "214-110 Empringham Drive", "Latitude": 43.812354, "Longitude": -79.212739, "City": "Toronto ", "Province": "Ontario", "Country": "Canada", "Postal Code": "M1B 4A4", "unique code": 73, "zone": 1, "order survey": 16, "L2F Code": 1268 }, "geometry": { "type": "Point", "coordinates": [ -79.212739, 43.812354 ] } },
{ "type": "Feature", "properties": { "Name of Food Bank": "West Hill and Galloway Food Bank", "Address": "4234 Lawrence Ave E, Unit 8 ", "Latitude": 43.7693306, "Longitude": -79.1838089, "City": "Toronto ", "Province": "Ontario", "Country": "Canada", "Postal Code": "M1E2S5", "unique code": 85, "zone": 1, "order survey": 85, "L2F Code": 1284 }, "geometry": { "type": "Point", "coordinates": [ -79.1838089, 43.7693306 ] } },
{ "type": "Feature", "properties": { "Name of Food Bank": "CICS Food Bank", "Address": "2330 Midland Avenue", "Latitude": 43.77838, "Longitude": -79.27601, "City": "Toronto ", "Province": "Ontario", "Country": "Canada", "Postal Code": "M1S5G5", "unique code": 10, "zone": 2, "order survey": 10, "L2F Code": 1224 }, "geometry": { "type": "Point", "coordinates": [ -79.27601, 43.77838 ] } },
{ "type": "Feature", "properties": { "Name of Food Bank": "Emmanuel Life Management Centre - VP and Sheppard Food Bank", "Address": "2743 Victoria Park Ave", "Latitude": 43.779267, "Longitude": -79.323413, "City": "Toronto ", "Province": "Ontario", "Country": "Canada", "Postal Code": "M1T1A8", "unique code": 11, "zone": 2, "order survey": 15, "L2F Code": 1216 }, "geometry": { "type": "Point", "coordinates": [ -79.323413, 43.779267 ] } },
{ "type": "Feature", "properties": { "Name of Food Bank": "OneChurch.to Food Bank", "Address": "2885 Kennedy Road", "Latitude": 43.80258, "Longitude": -79.296726, "City": "Toronto ", "Province": "Ontario", "Country": "Canada", "Postal Code": "M1V1S8", "unique code": 12, "zone": 2, "order survey": 43, "L2F Code": 1033 }, "geometry": { "type": "Point", "coordinates": [ -79.296726, 43.80258 ] } },
{ "type": "Feature", "properties": { "Name of Food Bank": "Emmanuel Life Management Centre - Chester Le Food Bank", "Address": "142 Chester Le Blvd", "Latitude": 43.796765, "Longitude": -79.330805, "City": "Toronto ", "Province": "Ontario", "Country": "Canada", "Postal Code": "M1W2M9", "unique code": 13, "zone": 2, "order survey": 13, "L2F Code": 1223 }, "geometry": { "type": "Point", "coordinates": [ -79.330805, 43.796765 ] } },
{ "type": "Feature", "properties": { "Name of Food Bank": "Tropicana Community Food Bank", "Address": "1385 Huntingwood Drive", "Latitude": 43.7977387, "Longitude": -79.2668064, "City": "Toronto ", "Province": "Ontario", "Country": "Canada", "Postal Code": "M1S3J1", "unique code": 82, "zone": 2, "order survey": 82, "L2F Code": 1279 }, "geometry": { "type": "Point", "coordinates": [ -79.2668064, 43.7977387 ] } },
{ "type": "Feature", "properties": { "Name of Food Bank": "Toronto East SDA Food Bank", "Address": "4548 Sheppard Ave East", "Latitude": 43.7890811, "Longitude": -79.2659256, "City": "Toronto ", "Province": "Ontario", "Country": "Canada", "Postal Code": "M1S1V2", "unique code": 83, "zone": 2, "order survey": 83, "L2F Code": 1280 }, "geometry": { "type": "Point", "coordinates": [ -79.2659256, 43.7890811 ] } },
{ "type": "Feature", "properties": { "Name of Food Bank": "Grace CRC McCowan Food Bank", "Address": "25 Channel Nine Ct", "Latitude": 43.7841721, "Longitude": -79.256832, "City": "Toronto ", "Province": "Ontario", "Country": "Canada", "Postal Code": "M1S4B5", "unique code": 84, "zone": 2, "order survey": 84, "L2F Code": 1283 }, "geometry": { "type": "Point", "coordinates": [ -79.256832, 43.7841721 ] } },
{ "type": "Feature", "properties": { "Name of Food Bank": "Alfauz Scarborough Food Bank", "Address": "156 Shorting Rd", "Latitude": 43.7932042, "Longitude": -79.2504702, "City": "Toronto ", "Province": "Ontario", "Country": "Canada", "Postal Code": "M1S3S6", "unique code": 93, "zone": 2, "order survey": 93, "L2F Code": 1306 }, "geometry": { "type": "Point", "coordinates": [ -79.2504702, 43.7932042 ] } },
{ "type": "Feature", "properties": { "Name of Food Bank": "The People's Market - Sakeenah ", "Address": "230 Nugget Ave", "Latitude": 43.796365, "Longitude": -79.255047, "City": "Toronto ", "Province": "Ontario", "Country": "Canada", "Postal Code": "M1S 3J2", "unique code": 98, "zone": 2, "order survey": 98, "L2F Code": 1301 }, "geometry": { "type": "Point", "coordinates": [ -79.255047, 43.796365 ] } },
{ "type": "Feature", "properties": { "Name of Food Bank": "SOSO World Ministries - McCowan Food Bank", "Address": "400 McCowan Road", "Latitude": 43.741102, "Longitude": -79.241172, "City": "Toronto ", "Province": "Ontario", "Country": "Canada", "Postal Code": "M1J1J5", "unique code": 14, "zone": 3, "order survey": 49, "L2F Code": 1228 }, "geometry": { "type": "Point", "coordinates": [ -79.241172, 43.741102 ] } },
{ "type": "Feature", "properties": { "Name of Food Bank": "Meadowvale East Apostolic Church Food Bank", "Address": "1510 Warden Ave", "Latitude": 43.761651, "Longitude": -79.301358, "City": "Toronto ", "Province": "Ontario", "Country": "Canada", "Postal Code": "M1R2S8", "unique code": 17, "zone": 3, "order survey": 37, "L2F Code": 1097 }, "geometry": { "type": "Point", "coordinates": [ -79.301358, 43.761651 ] } },
{ "type": "Feature", "properties": { "Name of Food Bank": "Grace Place Food Bank", "Address": "1428 Kennedy Road", "Latitude": 43.764517, "Longitude": -79.281324, "City": "Toronto ", "Province": "Ontario", "Country": "Canada", "Postal Code": "M1P2L7", "unique code": 18, "zone": 3, "order survey": 28, "L2F Code": 1235 }, "geometry": { "type": "Point", "coordinates": [ -79.281324, 43.764517 ] } },
{ "type": "Feature", "properties": { "Name of Food Bank": "Agincourt Community Services Association (ACSA)", "Address": "1911 Kennedy Road Unit 105", "Latitude": 43.767436, "Longitude": -79.280573, "City": "Toronto ", "Province": "Ontario", "Country": "Canada", "Postal Code": "M1P2L9", "unique code": 19, "zone": 3, "order survey": 1, "L2F Code": 56 }, "geometry": { "type": "Point", "coordinates": [ -79.280573, 43.767436 ] } },
{ "type": "Feature", "properties": { "Name of Food Bank": "Holy Wisdom Food Bank @ Brimley and Lawrence", "Address": "776 Brimley Rd", "Latitude": 43.750863, "Longitude": -79.254363, "City": "Toronto ", "Province": "Ontario", "Country": "Canada", "Postal Code": "M1J1C6", "unique code": 74, "zone": 3, "order survey": 31, "L2F Code": 1272 }, "geometry": { "type": "Point", "coordinates": [ -79.254363, 43.750863 ] } },
{ "type": "Feature", "properties": { "Name of Food Bank": "Golden Mile Food Bank", "Address": "1021 Birchmount Rd", "Latitude": 43.7419015, "Longitude": -79.2571387, "City": "Toronto ", "Province": "Ontario", "Country": "Canada", "Postal Code": "M1K1S2", "unique code": 94, "zone": 3, "order survey": 94, "L2F Code": 1307 }, "geometry": { "type": "Point", "coordinates": [ -79.2571387, 43.7419015 ] } },
{ "type": "Feature", "properties": { "Name of Food Bank": "Teesdale Place Food Bank", "Address": "40 Teesdale Place", "Latitude": 43.697199, "Longitude": -79.286438, "City": "Toronto ", "Province": "Ontario", "Country": "Canada", "Postal Code": "M1L1L3", "unique code": 20, "zone": 4, "order survey": 59, "L2F Code": 1114 }, "geometry": { "type": "Point", "coordinates": [ -79.286438, 43.697199 ] } },
{ "type": "Feature", "properties": { "Name of Food Bank": "SOSO World Ministries - Warden Food Program", "Address": "682 Warden", "Latitude": 43.705953, "Longitude": -79.279045, "City": "Toronto ", "Province": "Ontario", "Country": "Canada", "Postal Code": "M1L3Z9", "unique code": 22, "zone": 4, "order survey": 50, "L2F Code": 1231 }, "geometry": { "type": "Point", "coordinates": [ -79.279045, 43.705953 ] } },
{ "type": "Feature", "properties": { "Name of Food Bank": "Bluffs Food Bank", "Address": "33 East Road", "Latitude": 43.68804, "Longitude": -79.271511, "City": "Toronto ", "Province": "Ontario", "Country": "Canada", "Postal Code": "M1N1Z9", "unique code": 23, "zone": 4, "order survey": 6, "L2F Code": 1050 }, "geometry": { "type": "Point", "coordinates": [ -79.271511, 43.68804 ] } },
{ "type": "Feature", "properties": { "Name of Food Bank": "SOSO World Ministries - Glen Everest Food Bank", "Address": "10 Glen Everest Road", "Latitude": 43.699322, "Longitude": -79.254779, "City": "Toronto ", "Province": "Ontario", "Country": "Canada", "Postal Code": "M1N1J4", "unique code": 24, "zone": 4, "order survey": 48, "L2F Code": 1232 }, "geometry": { "type": "Point", "coordinates": [ -79.254779, 43.699322 ] } },
{ "type": "Feature", "properties": { "Name of Food Bank": "SOSO World Ministries - Byng Tower Food Bank", "Address": "3330 Danforth (Byng Towers)", "Latitude": 43.693722, "Longitude": -79.278609, "City": "Toronto ", "Province": "Ontario", "Country": "Canada", "Postal Code": "M1L4P9", "unique code": 26, "zone": 4, "order survey": 21, "L2F Code": 1229 }, "geometry": { "type": "Point", "coordinates": [ -79.278609, 43.693722 ] } },
{ "type": "Feature", "properties": { "Name of Food Bank": "Feed Scarborough - Cliffside Food Bank", "Address": "2259 Kingston Rd", "Latitude": 43.705517, "Longitude": -79.251205, "City": "Toronto ", "Province": "Ontario", "Country": "Canada", "Postal Code": "M1N1T8", "unique code": 27, "zone": 4, "order survey": 18, "L2F Code": 1230 }, "geometry": { "type": "Point", "coordinates": [ -79.251205, 43.705517 ] } },
{ "type": "Feature", "properties": { "Name of Food Bank": "SOSO World Ministries - Adanac Food Bank", "Address": "140 Adanac Drive", "Latitude": 43.7406926, "Longitude": -79.2294802, "City": "Toronto ", "Province": "Ontario", "Country": "Canada", "Postal Code": "M1M 2E8", "unique code": 97, "zone": 4, "order survey": 97, "L2F Code": 1310 }, "geometry": { "type": "Point", "coordinates": [ -79.2294802, 43.7406926 ] } },
{ "type": "Feature", "properties": { "Name of Food Bank": "Bethany Baptist Church Food Bank", "Address": "1041 Pape Avenue", "Latitude": 43.68921, "Longitude": -79.34847, "City": "Toronto ", "Province": "Ontario", "Country": "Canada", "Postal Code": "M4K3W1", "unique code": 28, "zone": 5, "order survey": 4, "L2F Code": 1181 }, "geometry": { "type": "Point", "coordinates": [ -79.34847, 43.68921 ] } },
{ "type": "Feature", "properties": { "Name of Food Bank": "St. Ann Parish Food Bank", "Address": "120 First Ave", "Latitude": 43.665872, "Longitude": -79.347759, "City": "Toronto ", "Province": "Ontario", "Country": "Canada", "Postal Code": "M4M1X1", "unique code": 29, "zone": 5, "order survey": 53, "L2F Code": 454 }, "geometry": { "type": "Point", "coordinates": [ -79.347759, 43.665872 ] } },
{ "type": "Feature", "properties": { "Name of Food Bank": "Grantful Food and Fellowship Food Bank and Soup Kitchen", "Address": "2029 Gerrard St. E", "Latitude": 43.681681, "Longitude": -79.308434, "City": "Toronto ", "Province": "Ontario", "Country": "Canada", "Postal Code": "M4E2B3", "unique code": 30, "zone": 5, "order survey": 29, "L2F Code": 1215 }, "geometry": { "type": "Point", "coordinates": [ -79.308434, 43.681681 ] } },
{ "type": "Feature", "properties": { "Name of Food Bank": "Calvary Grace Food Bank", "Address": "72 Main St", "Latitude": 43.680983, "Longitude": -79.299244, "City": "Toronto ", "Province": "Ontario", "Country": "Canada", "Postal Code": "M4E2V7", "unique code": 31, "zone": 5, "order survey": 27, "L2F Code": 46 }, "geometry": { "type": "Point", "coordinates": [ -79.299244, 43.680983 ] } },
{ "type": "Feature", "properties": { "Name of Food Bank": "Eastview Neighbourhood Community Centre", "Address": "86 Blake St", "Latitude": 43.675034, "Longitude": -79.339927, "City": "Toronto ", "Province": "Ontario", "Country": "Canada", "Postal Code": "M4J3C9", "unique code": 32, "zone": 5, "order survey": 12, "L2F Code": 44 }, "geometry": { "type": "Point", "coordinates": [ -79.339927, 43.675034 ] } },
{ "type": "Feature", "properties": { "Name of Food Bank": "Nourish East End", "Address": "1470 Gerrard St East", "Latitude": 43.672777, "Longitude": -79.320744, "City": "Toronto ", "Province": "Ontario", "Country": "Canada", "Postal Code": "M4L2A3", "unique code": 33, "zone": 5, "order survey": 41, "L2F Code": 45 }, "geometry": { "type": "Point", "coordinates": [ -79.320744, 43.672777 ] } },
{ "type": "Feature", "properties": { "Name of Food Bank": "Logan Food Market", "Address": "444 Logan Ave ", "Latitude": 43.6653681, "Longitude": -79.34484, "City": "Toronto ", "Province": "Ontario", "Country": "Canada", "Postal Code": "M4M 2P1", "unique code": 91, "zone": 5, "order survey": 91, "L2F Code": 1297 }, "geometry": { "type": "Point", "coordinates": [ -79.34484, 43.6653681 ] } },
{ "type": "Feature", "properties": { "Name of Food Bank": "Yonge Street Mission", "Address": "270 Gerrard Street East", "Latitude": 43.662363, "Longitude": -79.368338, "City": "Toronto ", "Province": "Ontario", "Country": "Canada", "Postal Code": "M5A2G4", "unique code": 34, "zone": 6, "order survey": 75, "L2F Code": 40 }, "geometry": { "type": "Point", "coordinates": [ -79.368338, 43.662363 ] } },
{ "type": "Feature", "properties": { "Name of Food Bank": "SPAFYCC - St. Lawrence Market", "Address": "92 Front St E", "Latitude": 43.6496376, "Longitude": -79.3724486, "City": "Toronto ", "Province": "Ontario", "Country": "Canada", "Postal Code": "M5E1C4", "unique code": 35, "zone": 6, "order survey": 51, "L2F Code": 1251 }, "geometry": { "type": "Point", "coordinates": [ -79.3724486, 43.6496376 ] } },
{ "type": "Feature", "properties": { "Name of Food Bank": "Toronto Council Fire Community Food Bank", "Address": "439 Dundas Street East", "Latitude": 43.659212, "Longitude": -79.366292, "City": "Toronto ", "Province": "Ontario", "Country": "Canada", "Postal Code": "M5B2G9", "unique code": 36, "zone": 6, "order survey": 67, "L2F Code": 108 }, "geometry": { "type": "Point", "coordinates": [ -79.366292, 43.659212 ] } },
{ "type": "Feature", "properties": { "Name of Food Bank": "St Bartholomew's Anglican Church", "Address": "509 Dundas Street East", "Latitude": 43.659713, "Longitude": -79.363901, "City": "Toronto ", "Province": "Ontario", "Country": "Canada", "Postal Code": "M5A3V3", "unique code": 37, "zone": 6, "order survey": 52, "L2F Code": 41 }, "geometry": { "type": "Point", "coordinates": [ -79.363901, 43.659713 ] } },
{ "type": "Feature", "properties": { "Name of Food Bank": "Lourdes Food Bank", "Address": "275 Bleecker Street", "Latitude": 43.668827, "Longitude": -79.373702, "City": "Toronto ", "Province": "Ontario", "Country": "Canada", "Postal Code": "M4X1M1", "unique code": 38, "zone": 6, "order survey": 33, "L2F Code": 83 }, "geometry": { "type": "Point", "coordinates": [ -79.373702, 43.668827 ] } },
{ "type": "Feature", "properties": { "Name of Food Bank": "Allan Gardens Food Bank", "Address": "353 Sherbourne Street", "Latitude": 43.662883, "Longitude": -79.372567, "City": "Toronto ", "Province": "Ontario", "Country": "Canada", "Postal Code": "M5A2S3", "unique code": 39, "zone": 6, "order survey": 2, "L2F Code": 36 }, "geometry": { "type": "Point", "coordinates": [ -79.372567, 43.662883 ] } },
{ "type": "Feature", "properties": { "Name of Food Bank": "L'Agapanthe Food Bank", "Address": "179 Gerrard Street East", "Latitude": 43.6607846, "Longitude": -79.3757016, "City": "Toronto ", "Province": "Ontario", "Country": "Canada", "Postal Code": "M5A 2E5", "unique code": 96, "zone": 6, "order survey": 96, "L2F Code": 1309 }, "geometry": { "type": "Point", "coordinates": [ -79.3757016, 43.6607846 ] } },
{ "type": "Feature", "properties": { "Name of Food Bank": "The Lighthouse", "Address": "1008 Bathurst Street", "Latitude": 43.670681, "Longitude": -79.413731, "City": "Toronto ", "Province": "Ontario", "Country": "Canada", "Postal Code": "M5R3G7", "unique code": 40, "zone": 7, "order survey": 62, "L2F Code": 113 }, "geometry": { "type": "Point", "coordinates": [ -79.413731, 43.670681 ] } },
{ "type": "Feature", "properties": { "Name of Food Bank": "Avenue Road Food Bank", "Address": "240 Avenue Road", "Latitude": 43.676934, "Longitude": -79.397922, "City": "Toronto ", "Province": "Ontario", "Country": "Canada", "Postal Code": "M5R2J4", "unique code": 41, "zone": 7, "order survey": 3, "L2F Code": 1217 }, "geometry": { "type": "Point", "coordinates": [ -79.397922, 43.676934 ] } },
{ "type": "Feature", "properties": { "Name of Food Bank": "Churches on the Hill Food Bank", "Address": "230 St. Clair Avenue West", "Latitude": 43.686316, "Longitude": -79.405718, "City": "Toronto ", "Province": "Ontario", "Country": "Canada", "Postal Code": "M4V1R5", "unique code": 42, "zone": 7, "order survey": 9, "L2F Code": 820 }, "geometry": { "type": "Point", "coordinates": [ -79.405718, 43.686316 ] } },
{ "type": "Feature", "properties": { "Name of Food Bank": "Fort York Food Bank", "Address": "380 College Street West", "Latitude": 43.657295, "Longitude": -79.405132, "City": "Toronto ", "Province": "Ontario", "Country": "Canada", "Postal Code": "M5T1S6", "unique code": 43, "zone": 7, "order survey": 25, "L2F Code": 216 }, "geometry": { "type": "Point", "coordinates": [ -79.405132, 43.657295 ] } },
{ "type": "Feature", "properties": { "Name of Food Bank": "Scott Mission", "Address": "502 Spadina Ave", "Latitude": 43.658686, "Longitude": -79.400807, "City": "Toronto ", "Province": "Ontario", "Country": "Canada", "Postal Code": "M5S2H1", "unique code": 44, "zone": 7, "order survey": 47, "L2F Code": 81 }, "geometry": { "type": "Point", "coordinates": [ -79.400807, 43.658686 ] } },
{ "type": "Feature", "properties": { "Name of Food Bank": "Hillcrest Community Food Bank", "Address": "2 Vaughan Road", "Latitude": 43.6810903, "Longitude": -79.4180128, "City": "Toronto ", "Province": "Ontario", "Country": "Canada", "Postal Code": "M6G2N1", "unique code": 76, "zone": 7, "order survey": 76, "L2F Code": 1271 }, "geometry": { "type": "Point", "coordinates": [ -79.4180128, 43.6810903 ] } },
{ "type": "Feature", "properties": { "Name of Food Bank": "SPAFYCC - Waterfront", "Address": "627 Queens Quay W", "Latitude": 43.6358426, "Longitude": -79.3970733, "City": "Toronto ", "Province": "Ontario", "Country": "Canada", "Postal Code": "M5V3G3", "unique code": 79, "zone": 7, "order survey": 79, "L2F Code": 1274 }, "geometry": { "type": "Point", "coordinates": [ -79.3970733, 43.6358426 ] } },
{ "type": "Feature", "properties": { "Name of Food Bank": "St Hilda's Food Market", "Address": "800 Vaughan Rd", "Latitude": 43.6950329, "Longitude": -79.4514151, "City": "Toronto ", "Province": "Ontario", "Country": "Canada", "Postal Code": "M6E2Z4", "unique code": 87, "zone": 7, "order survey": 87, "L2F Code": 1286 }, "geometry": { "type": "Point", "coordinates": [ -79.4514151, 43.6950329 ] } },
{ "type": "Feature", "properties": { "Name of Food Bank": "Christie Ossington Neighbourhood Centre Food Bank", "Address": "854 Bloor St W", "Latitude": 43.6624131, "Longitude": -79.4267854, "City": "Toronto ", "Province": "Ontario", "Country": "Canada", "Postal Code": "M6G1M2", "unique code": 88, "zone": 7, "order survey": 88, "L2F Code": 1287 }, "geometry": { "type": "Point", "coordinates": [ -79.4267854, 43.6624131 ] } },
{ "type": "Feature", "properties": { "Name of Food Bank": "YWCA Elm Food Bank", "Address": "150 Elizabeth St", "Latitude": 43.65661811, "Longitude": -79.38585328000001, "City": "Toronto ", "Province": "Ontario", "Country": "Canada", "Postal Code": "M5G 1H4", "unique code": 95, "zone": 7, "order survey": 95, "L2F Code": 1305 }, "geometry": { "type": "Point", "coordinates": [ -79.38585328, 43.65661811 ] } },
{ "type": "Feature", "properties": { "Name of Food Bank": "Bloor West Food Bank", "Address": "379 Jane St", "Latitude": 43.6577816, "Longitude": -79.4875858, "City": "Toronto ", "Province": "Ontario", "Country": "Canada", "Postal Code": "M6S3Z3", "unique code": 45, "zone": 8, "order survey": 5, "L2F Code": 1238 }, "geometry": { "type": "Point", "coordinates": [ -79.4875858, 43.6577816 ] } },
{ "type": "Feature", "properties": { "Name of Food Bank": "Oasis Dufferin Community Centre", "Address": "1219 Dufferin Street", "Latitude": 43.666082, "Longitude": -79.437693, "City": "Toronto ", "Province": "Ontario", "Country": "Canada", "Postal Code": "M6H4C2", "unique code": 46, "zone": 8, "order survey": 42, "L2F Code": 318 }, "geometry": { "type": "Point", "coordinates": [ -79.437693, 43.666082 ] } },
{ "type": "Feature", "properties": { "Name of Food Bank": "CommunitiCare Health Services", "Address": "3446 Dundas St W", "Latitude": 43.66587, "Longitude": -79.486606, "City": "Toronto ", "Province": "Ontario", "Country": "Canada", "Postal Code": "M6S2S1", "unique code": 47, "zone": 8, "order survey": 60, "L2F Code": 1237 }, "geometry": { "type": "Point", "coordinates": [ -79.486606, 43.66587 ] } },
{ "type": "Feature", "properties": { "Name of Food Bank": "Cooper Mills Gooch Community Food Bank", "Address": "4020 Dundas St W", "Latitude": 43.664908, "Longitude": -79.50279, "City": "Toronto ", "Province": "Ontario", "Country": "Canada", "Postal Code": "M6S2T7", "unique code": 48, "zone": 8, "order survey": 11, "L2F Code": 1243 }, "geometry": { "type": "Point", "coordinates": [ -79.50279, 43.664908 ] } },
{ "type": "Feature", "properties": { "Name of Food Bank": "The Stop Community Food Centre", "Address": "1884 Davenport Road", "Latitude": 43.670812, "Longitude": -79.45375, "City": "Toronto ", "Province": "Ontario", "Country": "Canada", "Postal Code": "M6N4Y2", "unique code": 49, "zone": 8, "order survey": 63, "L2F Code": 82 }, "geometry": { "type": "Point", "coordinates": [ -79.45375, 43.670812 ] } },
{ "type": "Feature", "properties": { "Name of Food Bank": "Parkdale Community Food Bank", "Address": "5 Brock Ave", "Latitude": 43.6419944, "Longitude": -79.4324033, "City": "Toronto ", "Province": "Ontario", "Country": "Canada", "Postal Code": "M6K2S1", "unique code": 50, "zone": 8, "order survey": 45, "L2F Code": 25 }, "geometry": { "type": "Point", "coordinates": [ -79.4324033, 43.6419944 ] } },
{ "type": "Feature", "properties": { "Name of Food Bank": "Thinking of Elders Mobile Food Bank", "Address": "205-909 Jane St", "Latitude": 43.677756, "Longitude": -79.495769, "City": "Toronto ", "Province": "Ontario", "Country": "Canada", "Postal Code": "M6N4C6", "unique code": 52, "zone": 9, "order survey": 64, "L2F Code": 1244 }, "geometry": { "type": "Point", "coordinates": [ -79.495769, 43.677756 ] } },
{ "type": "Feature", "properties": { "Name of Food Bank": "Syme Woolner Neighbourhood and Family Centre", "Address": "190 Woolner Avenue", "Latitude": 43.672689, "Longitude": -79.490677, "City": "Toronto ", "Province": "Ontario", "Country": "Canada", "Postal Code": "M6N1Y3", "unique code": 53, "zone": 9, "order survey": 58, "L2F Code": 18 }, "geometry": { "type": "Point", "coordinates": [ -79.490677, 43.672689 ] } },
{ "type": "Feature", "properties": { "Name of Food Bank": "Mount Dennis Food Bank", "Address": "101 Humber Blvd", "Latitude": 43.679794, "Longitude": -79.482016, "City": "Toronto ", "Province": "Ontario", "Country": "Canada", "Postal Code": "M6N2H5", "unique code": 75, "zone": 9, "order survey": 38, "L2F Code": 1270 }, "geometry": { "type": "Point", "coordinates": [ -79.482016, 43.679794 ] } },
{ "type": "Feature", "properties": { "Name of Food Bank": "LHTC Food Bank - Lighthouse Training Centre", "Address": "2107 Weston Rd", "Latitude": 43.7025882, "Longitude": -79.5234943, "City": "Toronto ", "Province": "Ontario", "Country": "Canada", "Postal Code": "M9N 1X7", "unique code": 99, "zone": 9, "order survey": 99, "L2F Code": 1308 }, "geometry": { "type": "Point", "coordinates": [ -79.5234943, 43.7025882 ] } },
{ "type": "Feature", "properties": { "Name of Food Bank": "Mabelle Food Program", "Address": "49 Mabelle Ave", "Latitude": 43.644966, "Longitude": -79.528583, "City": "Toronto ", "Province": "Ontario", "Country": "Canada", "Postal Code": "M9A5B1", "unique code": 54, "zone": 10, "order survey": 34, "L2F Code": 1108 }, "geometry": { "type": "Point", "coordinates": [ -79.528583, 43.644966 ] } },
{ "type": "Feature", "properties": { "Name of Food Bank": "Westway Christian Church Food Bank", "Address": "6 Kilburn Place", "Latitude": 43.685276, "Longitude": -79.553853, "City": "Toronto ", "Province": "Ontario", "Country": "Canada", "Postal Code": "M9R2X5", "unique code": 56, "zone": 10, "order survey": 72, "L2F Code": 1210 }, "geometry": { "type": "Point", "coordinates": [ -79.553853, 43.685276 ] } },
{ "type": "Feature", "properties": { "Name of Food Bank": "St. James Food Basket", "Address": "400 Burnhamthorpe Road", "Latitude": 43.646691, "Longitude": -79.556274, "City": "Toronto ", "Province": "Ontario", "Country": "Canada", "Postal Code": "M9B2A8", "unique code": 57, "zone": 10, "order survey": 54, "L2F Code": 1111 }, "geometry": { "type": "Point", "coordinates": [ -79.556274, 43.646691 ] } },
{ "type": "Feature", "properties": { "Name of Food Bank": "Christ Church St James Anglican Church Food Pantry", "Address": "194 Park Lawn Road", "Latitude": 43.629949, "Longitude": -79.49124, "City": "Toronto ", "Province": "Ontario", "Country": "Canada", "Postal Code": "M8Y3J1", "unique code": 58, "zone": 10, "order survey": 8, "L2F Code": 10 }, "geometry": { "type": "Point", "coordinates": [ -79.49124, 43.629949 ] } },
{ "type": "Feature", "properties": { "Name of Food Bank": "Haven on the Queensway", "Address": "1533 The Queensway", "Latitude": 43.618364, "Longitude": -79.537091, "City": "Toronto ", "Province": "Ontario", "Country": "Canada", "Postal Code": "M8Z1T8", "unique code": 59, "zone": 10, "order survey": 30, "L2F Code": 185 }, "geometry": { "type": "Point", "coordinates": [ -79.537091, 43.618364 ] } },
{ "type": "Feature", "properties": { "Name of Food Bank": "New Toronto Street Food Bank", "Address": "191 New Toronto Street", "Latitude": 43.606441, "Longitude": -79.5041, "City": "Toronto ", "Province": "Ontario", "Country": "Canada", "Postal Code": "M8V2E7", "unique code": 60, "zone": 10, "order survey": 40, "L2F Code": 931 }, "geometry": { "type": "Point", "coordinates": [ -79.5041, 43.606441 ] } },
{ "type": "Feature", "properties": { "Name of Food Bank": "Norseman Community Food Bank", "Address": "763 Royal York Road", "Latitude": 43.637273, "Longitude": -79.5091871, "City": "Toronto ", "Province": "Ontario", "Country": "Canada", "Postal Code": "M8Y2T3", "unique code": 78, "zone": 10, "order survey": 78, "L2F Code": 1275 }, "geometry": { "type": "Point", "coordinates": [ -79.5091871, 43.637273 ] } },
{ "type": "Feature", "properties": { "Name of Food Bank": "Midaynta - Capri Food Bank", "Address": "7 Capri Rd", "Latitude": 43.6532987, "Longitude": -79.5650312, "City": "Toronto ", "Province": "Ontario", "Country": "Canada", "Postal Code": "M9B6B9", "unique code": 81, "zone": 10, "order survey": 81, "L2F Code": 1277 }, "geometry": { "type": "Point", "coordinates": [ -79.5650312, 43.6532987 ] } },
{ "type": "Feature", "properties": { "Name of Food Bank": "Scarlett Woods Friendship Food Bank", "Address": "58 Waterton Rd", "Latitude": 43.693968, "Longitude": -79.5168239, "City": "Toronto ", "Province": "Ontario", "Country": "Canada", "Postal Code": "M9P2R1", "unique code": 86, "zone": 10, "order survey": 86, "L2F Code": 1285 }, "geometry": { "type": "Point", "coordinates": [ -79.5168239, 43.693968 ] } },
{ "type": "Feature", "properties": { "Name of Food Bank": "Braeburn Neighbourhood Place", "Address": "75 Tanridge Crescent", "Latitude": 43.728962, "Longitude": -79.545998, "City": "Toronto ", "Province": "Ontario", "Country": "Canada", "Postal Code": "M9W2N9", "unique code": 61, "zone": 11, "order survey": 7, "L2F Code": 1 }, "geometry": { "type": "Point", "coordinates": [ -79.545998, 43.728962 ] } },
{ "type": "Feature", "properties": { "Name of Food Bank": "Toronto West SDA Food Bank", "Address": "1621 Albion Road", "Latitude": 43.741359, "Longitude": -79.593209, "City": "Toronto ", "Province": "Ontario", "Country": "Canada", "Postal Code": "M9V1B6", "unique code": 62, "zone": 11, "order survey": 69, "L2F Code": 1199 }, "geometry": { "type": "Point", "coordinates": [ -79.593209, 43.741359 ] } },
{ "type": "Feature", "properties": { "Name of Food Bank": "Mount Olive Food Bank", "Address": "1030 Albion Road", "Latitude": 43.736963, "Longitude": -79.563518, "City": "Toronto ", "Province": "Ontario", "Country": "Canada", "Postal Code": "M9V1A7", "unique code": 63, "zone": 11, "order survey": 39, "L2F Code": 1163 }, "geometry": { "type": "Point", "coordinates": [ -79.563518, 43.736963 ] } },
{ "type": "Feature", "properties": { "Name of Food Bank": "Toronto Perth SDA Food Bank", "Address": "220 Bethridge Road", "Latitude": 43.708874, "Longitude": -79.590642, "City": "Toronto ", "Province": "Ontario", "Country": "Canada", "Postal Code": "M9W6S3", "unique code": 64, "zone": 11, "order survey": 68, "L2F Code": 1257 }, "geometry": { "type": "Point", "coordinates": [ -79.590642, 43.708874 ] } },
{ "type": "Feature", "properties": { "Name of Food Bank": "Kingsview Eats Food Bank", "Address": "70 Kingsview Boulevard", "Latitude": 43.697839, "Longitude": -79.557327, "City": "Toronto ", "Province": "Ontario", "Country": "Canada", "Postal Code": "M9R1T9", "unique code": 65, "zone": 11, "order survey": 32, "L2F Code": 1245 }, "geometry": { "type": "Point", "coordinates": [ -79.557327, 43.697839 ] } },
{ "type": "Feature", "properties": { "Name of Food Bank": "Our Saviour Lutheran Church Food Bank", "Address": "2705 Islington Avenue", "Latitude": 43.741217, "Longitude": -79.566178, "City": "Toronto ", "Province": "Ontario", "Country": "Canada", "Postal Code": "M9V2X7", "unique code": 66, "zone": 11, "order survey": 44, "L2F Code": 1152 }, "geometry": { "type": "Point", "coordinates": [ -79.566178, 43.741217 ] } },
{ "type": "Feature", "properties": { "Name of Food Bank": "Living Word Food Bank", "Address": "139 Millwick Drive", "Latitude": 43.7602485, "Longitude": -79.5707809, "City": "Toronto ", "Province": "Ontario", "Country": "Canada", "Postal Code": "M9L1Y7", "unique code": 77, "zone": 11, "order survey": 77, "L2F Code": 1273 }, "geometry": { "type": "Point", "coordinates": [ -79.5707809, 43.7602485 ] } },
{ "type": "Feature", "properties": { "Name of Food Bank": "Loyan Community Food Bank", "Address": "44 Willowridge Rd", "Latitude": 43.67551641, "Longitude": -79.5695176, "City": "Toronto ", "Province": "Ontario", "Country": "Canada", "Postal Code": "M9R3Z1", "unique code": 80, "zone": 11, "order survey": 80, "L2F Code": 1276 }, "geometry": { "type": "Point", "coordinates": [ -79.5695176, 43.67551641 ] } },
{ "type": "Feature", "properties": { "Name of Food Bank": "Homes First - 101 Kendleton", "Address": "101 Kendleton Dr", "Latitude": 43.7382792, "Longitude": -79.5808582, "City": "Toronto ", "Province": "Ontario", "Country": "Canada", "Postal Code": "M9V1V1", "unique code": 92, "zone": 11, "order survey": 92, "L2F Code": 1300 }, "geometry": { "type": "Point", "coordinates": [ -79.5808582, 43.7382792 ] } },
{ "type": "Feature", "properties": { "Name of Food Bank": "Thorncliffe Food Bank", "Address": "5B-1 Leaside Park Dr.", "Latitude": 43.7026519, "Longitude": -79.351603, "City": "Toronto ", "Province": "Ontario", "Country": "Canada", "Postal Code": "M4H1R1", "unique code": 67, "zone": 12, "order survey": 65, "L2F Code": 1196 }, "geometry": { "type": "Point", "coordinates": [ -79.351603, 43.7026519 ] } },
{ "type": "Feature", "properties": { "Name of Food Bank": "Emmanuel Life Management Centre - Roywood Food Bank", "Address": "251 Roywood Dr", "Latitude": 43.762235, "Longitude": -79.335668, "City": "Toronto ", "Province": "Ontario", "Country": "Canada", "Postal Code": "M3A2E9", "unique code": 68, "zone": 12, "order survey": 14, "L2F Code": 1261 }, "geometry": { "type": "Point", "coordinates": [ -79.335668, 43.762235 ] } },
{ "type": "Feature", "properties": { "Name of Food Bank": "Friends of Jesus Christ Food Bank", "Address": "1420 Victoria Park Ave", "Latitude": 43.721463, "Longitude": -79.302456, "City": "Toronto ", "Province": "Ontario", "Country": "Canada", "Postal Code": "M4A2P7", "unique code": 69, "zone": 12, "order survey": 26, "L2F Code": 1145 }, "geometry": { "type": "Point", "coordinates": [ -79.302456, 43.721463 ] } },
{ "type": "Feature", "properties": { "Name of Food Bank": "Flemingdon Park Community Food Bank", "Address": "10 Gateway Blvd. (Basement Floor)", "Latitude": 43.709781, "Longitude": -79.332708, "City": "Toronto ", "Province": "Ontario", "Country": "Canada", "Postal Code": "M3C3A1", "unique code": 70, "zone": 12, "order survey": 23, "L2F Code": 1061 }, "geometry": { "type": "Point", "coordinates": [ -79.332708, 43.709781 ] } },
{ "type": "Feature", "properties": { "Name of Food Bank": "TNO - The Neighbourhood Organization Food Collaborative", "Address": "45 Overlea Blvd", "Latitude": 43.705538, "Longitude": -79.346256, "City": "Toronto ", "Province": "Ontario", "Country": "Canada", "Postal Code": "M4H1C3", "unique code": 71, "zone": 12, "order survey": 66, "L2F Code": 1236 }, "geometry": { "type": "Point", "coordinates": [ -79.346256, 43.705538 ] } }
]
}
